[
    {
        "projectID":"Concrete Chemicals,",
        "company":"CEMEX",
        "location":"R\u00fcdersdorf",
        "country":"Germany",
        "latitude":52.4848698925,
        "longitude":13.8307696339,
        "scale":"Demonstration - operational",
        "status":"operational",
        "tech_full":"CCUS - post-combustion",
        "png":1,
        "tech":"cement",
        "bubble_size":2,
        "zoom":13
    },
    {
        "projectID":"CATCH4CLIMATE,",
        "company":"Buzzi Unicem, Heidelberg Materials, Schwenk and Vicat",
        "location":"Mergelstetten",
        "country":"Germany",
        "latitude":48.6541389176,
        "longitude":10.1630892755,
        "scale":"Demonstration -  under construction",
        "status":"under_construction",
        "tech_full":"CCU - oxyfuel",
        "png":2,
        "tech":"cement",
        "bubble_size":2,
        "zoom":15
    },
    {
        "projectID":"Leilac-1,",
        "company":"CEMEX, Heidelberg Materials and Tarmac\/CRH",
        "location":"Lixhe",
        "country":"Belgium",
        "latitude":50.7536286585,
        "longitude":5.6718528291,
        "scale":"Pilot - operational",
        "status":"operational",
        "tech_full":"CCS - direct separation",
        "png":3,
        "tech":"cement",
        "bubble_size":2,
        "zoom":15
    },
    {
        "projectID":"Brevik CCS,",
        "company":"Heidelberg Materials",
        "location":"Brevik",
        "country":"Norway",
        "latitude":59.0864200982,
        "longitude":9.67496,
        "scale":"Full scale -  under construction",
        "status":"under_construction",
        "tech_full":"CCS - post-combustion",
        "png":4,
        "tech":"cement",
        "bubble_size":2,
        "zoom":15
    },
    {
        "projectID":"Carbon2Business,",
        "company":"Holcim",
        "location":"L\u00e4gerdorf",
        "country":"Germany",
        "latitude":53.8761964706,
        "longitude":9.5793571236,
        "scale":"Full scale -  under construction",
        "status":"under_construction",
        "tech_full":"CCUS - oxyfuel",
        "png":5,
        "tech":"cement",
        "bubble_size":2,
        "zoom":13
    },
    {
        "projectID":"L\u00e4gerdorf,",
        "company":"Heidelberg Materials",
        "location":"Antoing",
        "country":"Belgium",
        "latitude":50.575402185,
        "longitude":3.4448096347,
        "scale":"Full scale -  under construction",
        "status":"under_construction",
        "tech_full":"CCUS - oxyfuel and amine",
        "png":6,
        "tech":"cement",
        "bubble_size":2,
        "zoom":13
    },
    {
        "projectID":"XLR8 CCS Heidelberg,",
        "company":"Heidelberg Materials",
        "location":"Ketton",
        "country":"United Kingdom",
        "latitude":52.6400036062,
        "longitude":-0.5463191344,
        "scale":"Pilot - operational",
        "status":"operational",
        "tech_full":"CCS - post-combustion",
        "png":7,
        "tech":"cement",
        "bubble_size":2,
        "zoom":14
    },
    {
        "projectID":"Monselice CCS,",
        "company":"Buzzi Unicem",
        "location":"Monselice",
        "country":"Italy",
        "latitude":45.253611667,
        "longitude":11.7519863867,
        "scale":"Pilot - operational",
        "status":"operational",
        "tech_full":"CCS - not stated",
        "png":8,
        "tech":"cement",
        "bubble_size":2,
        "zoom":13
    },
    {
        "projectID":null,
        "company":"Hoffmann Green Cement",
        "location":"Bournezeau ",
        "country":"France",
        "latitude":46.6306557342,
        "longitude":-1.1571965721,
        "scale":"Pilot - operational",
        "status":"operational",
        "tech_full":"klin for calcined clay - flash calciner",
        "png":9,
        "tech":"cement",
        "bubble_size":2,
        "zoom":14
    },
    {
        "projectID":"Argilor ,",
        "company":"Vicat",
        "location":"Xeuilley",
        "country":"France",
        "latitude":48.5635519952,
        "longitude":6.1075678034,
        "scale":"Full scale -  under construction",
        "status":"under_construction",
        "tech_full":"klin for calcined clay - flash calciner",
        "png":10,
        "tech":"cement",
        "bubble_size":2,
        "zoom":15
    },
    {
        "projectID":null,
        "company":"Holcim",
        "location":"Bouches-du-Rh\u00f4ne",
        "country":"France",
        "latitude":43.4207599613,
        "longitude":5.3865104515,
        "scale":"Full scale - operational",
        "status":"operational",
        "tech_full":"klin for calcined clay - not stated",
        "png":11,
        "tech":"cement",
        "bubble_size":2,
        "zoom":14
    },
    {
        "projectID":"ECoClay,",
        "company":"FLSmidth",
        "location":"Mariager Fjord",
        "country":"Denmark",
        "latitude":56.6871169358,
        "longitude":10.0519126375,
        "scale":"Pilot -  under construction",
        "status":"under_construction",
        "tech_full":"klin for calcined clay - electric calciner",
        "png":12,
        "tech":"cement",
        "bubble_size":2,
        "zoom":15
    },
    {
        "projectID":null,
        "company":"Holcim",
        "location":"Saint-Pierre-la-Cour",
        "country":"France",
        "latitude":48.1079836655,
        "longitude":-1.0367546473,
        "scale":"Full scale - operational",
        "status":"operational",
        "tech_full":"klin for calcined clay - biomass fueled and waste recovery",
        "png":13,
        "tech":"cement",
        "bubble_size":2,
        "zoom":13
    },
    {
        "projectID":"Steelanol,",
        "company":"ArcelorMittal",
        "location":"Ghent",
        "country":"Belgium",
        "latitude":51.169929,
        "longitude":3.804462,
        "scale":"Demonstration - operational",
        "status":"operational",
        "tech_full":"CCU for BF-BOF - CCU for ethanol production",
        "png":14,
        "tech":"steel",
        "bubble_size":2,
        "zoom":13
    },
    {
        "projectID":"SuSteel,",
        "company":"Voestalpine Group",
        "location":"Donawitz",
        "country":"Austria",
        "latitude":47.380455,
        "longitude":15.065182,
        "scale":"Pilot - operational ",
        "status":"operational ",
        "tech_full":"ESR - hydrogen plasma smelting reduction",
        "png":15,
        "tech":"steel",
        "bubble_size":2,
        "zoom":13
    },
    {
        "projectID":"SIDERWIN,",
        "company":"ArcelorMittal",
        "location":"Maizi\u00e8res-l\u00e8s-Metz",
        "country":"France",
        "latitude":49.20014802,
        "longitude":6.152133758,
        "scale":"Pilot - operational",
        "status":"operational",
        "tech_full":"electrowinning - electrolysis with renewables",
        "png":16,
        "tech":"steel",
        "bubble_size":2,
        "zoom":16
    },
    {
        "projectID":"3D - DMX\u2122 ,",
        "company":"ArcelorMittal",
        "location":"Dunkirk",
        "country":"France",
        "latitude":51.041274,
        "longitude":2.292948,
        "scale":"Pilot - operational",
        "status":"operational",
        "tech_full":"CCS for BF-BOF - demonstration of CCS from industrial activities",
        "png":17,
        "tech":"steel",
        "bubble_size":2,
        "zoom":13
    },
    {
        "projectID":"GrInHy2.0  (demonstration for SALCOS),",
        "company":"Salzgitter Group",
        "location":"Salzgitter",
        "country":"Germany",
        "latitude":52.161794,
        "longitude":10.409371,
        "scale":"Demonstration - operational",
        "status":"operational",
        "tech_full":"H2 production - green electricity electrolysis",
        "png":18,
        "tech":"steel",
        "bubble_size":2,
        "zoom":12
    },
    {
        "projectID":"H2Future,",
        "company":"Voestalpine Group",
        "location":"Linz",
        "country":"Austria",
        "latitude":48.274023,
        "longitude":14.33434,
        "scale":"Pilot - operational ",
        "status":"operational ",
        "tech_full":"H2 production - green electricity electrolysis",
        "png":19,
        "tech":"steel",
        "bubble_size":2,
        "zoom":13
    },
    {
        "projectID":"Torero,",
        "company":"ArcelorMittal",
        "location":"Ghent",
        "country":"Belgium",
        "latitude":51.169929,
        "longitude":3.804462,
        "scale":"Demonstration -  under construction",
        "status":"under_construction",
        "tech_full":"Biomass for BF - biocoal for BF with CCS",
        "png":20,
        "tech":"steel",
        "bubble_size":2,
        "zoom":13
    },
    {
        "projectID":"HyBit ,",
        "company":"ArcelorMittal",
        "location":"Bremen",
        "country":"Germany",
        "latitude":53.133305,
        "longitude":8.688193,
        "scale":"Full scale -  under construction",
        "status":"under_construction",
        "tech_full":"H2 production ",
        "png":21,
        "tech":"steel",
        "bubble_size":2,
        "zoom":13
    },
    {
        "projectID":"tkH2Steel,",
        "company":"Thyssenkrupp",
        "location":"Duisburg",
        "country":"Germany",
        "latitude":51.491649,
        "longitude":6.733051,
        "scale":"Full scale -  under construction",
        "status":"under_construction",
        "tech_full":"NG-DRI to H-DRI - midrex flex",
        "png":22,
        "tech":"steel",
        "bubble_size":2,
        "zoom":13
    },
    {
        "projectID":"Oxel\u00f6sund mini-mill,",
        "company":"SSAB",
        "location":"Oxel\u00f6sund",
        "country":"Sweden",
        "latitude":58.6760961099,
        "longitude":17.1284402038,
        "scale":"Full scale -  under construction",
        "status":"under_construction",
        "tech_full":"BF-BOF to EAF for green iron - EAF using HBI and scrap",
        "png":23,
        "tech":"steel",
        "bubble_size":2,
        "zoom":12
    },
    {
        "projectID":"HYFOR,",
        "company":"Voestalpine Group",
        "location":"Donawitz",
        "country":"Austria",
        "latitude":47.380455,
        "longitude":15.065182,
        "scale":"Pilot - operational",
        "status":"operational",
        "tech_full":"H-DRI - H-DRI and hy4smelt",
        "png":24,
        "tech":"steel",
        "bubble_size":2,
        "zoom":13
    },
    {
        "projectID":"H2G2,",
        "company":"Stegra",
        "location":"Boden",
        "country":"Sweden",
        "latitude":65.8125635957,
        "longitude":21.7821342138,
        "scale":"Full scale -  under construction",
        "status":"under_construction",
        "tech_full":"H-DRI - green electricity electrolysis and EAF",
        "png":25,
        "tech":"steel",
        "bubble_size":2,
        "zoom":13
    },
    {
        "projectID":"WindH2  (Demonstration for SALCOS),",
        "company":"Salzgitter Group",
        "location":"Salzgitter",
        "country":"Germany",
        "latitude":52.17207373,
        "longitude":10.43011341,
        "scale":"Demonstration - operational",
        "status":"operational",
        "tech_full":"H2 production - green electricity electrolysis",
        "png":26,
        "tech":"steel",
        "bubble_size":2,
        "zoom":13
    },
    {
        "projectID":null,
        "company":"ArcelorMittal",
        "location":"Dunkirk",
        "country":"France",
        "latitude":51.041274,
        "longitude":2.292948,
        "scale":"Full scale -  under construction",
        "status":"under_construction",
        "tech_full":"NG-DRI to H-DRI  and EAFf ; complemented with CCS\nnatural gas will gradually be phased out as the new equipment will be fed by renewable or low-carbon hydrogen, biogas and electricity. ",
        "png":27,
        "tech":"steel",
        "bubble_size":2,
        "zoom":13
    },
    {
        "projectID":"HYBRIT,",
        "company":"LKAB",
        "location":"G\u00e4llivare",
        "country":"Sweden",
        "latitude":67.1956471525,
        "longitude":20.7110459051,
        "scale":"Demonstration -  under construction",
        "status":"under_construction",
        "tech_full":"H-DRI and EAF",
        "png":28,
        "tech":"steel",
        "bubble_size":2,
        "zoom":12
    },
    {
        "projectID":"\u03bcDRAL (Demonstration for SALCOS),",
        "company":"Salzgitter Group",
        "location":"Salzgitter",
        "country":"Germany",
        "latitude":52.161794,
        "longitude":10.409371,
        "scale":"Demonstration - operational",
        "status":"operational",
        "tech_full":"NG-DRI to H-DRI - flexible operation NG and H2",
        "png":29,
        "tech":"steel",
        "bubble_size":2,
        "zoom":12
    },
    {
        "projectID":"GravitHy,",
        "company":"Marcegaglia Group ",
        "location":"Fos sur Mer",
        "country":"France",
        "latitude":43.4408347969,
        "longitude":4.9241801086,
        "scale":"Full scale -  under construction",
        "status":"under_construction",
        "tech_full":"H-DRI - green electricity electrolysis ",
        "png":30,
        "tech":"steel",
        "bubble_size":2,
        "zoom":13
    },
    {
        "projectID":null,
        "company":"Hydnum Steel",
        "location":"Puertollano",
        "country":"Spain",
        "latitude":38.6874,
        "longitude":-4.108386,
        "scale":"Full scale -  under construction",
        "status":"under_construction",
        "tech_full":"H-DRI - green electricity electrolysis  and EAF",
        "png":31,
        "tech":"steel",
        "bubble_size":2,
        "zoom":16
    },
    {
        "projectID":"Greentec,",
        "company":"Voestalpine Group",
        "location":"Linz",
        "country":"Austria",
        "latitude":48.274023,
        "longitude":14.33434,
        "scale":"Full scale -  under construction",
        "status":"under_construction",
        "tech_full":"BF-BOF to EAF for green iron - EAFusing HBI and scrap",
        "png":32,
        "tech":"steel",
        "bubble_size":2,
        "zoom":13
    },
    {
        "projectID":"Greentec,",
        "company":"Voestalpine Group",
        "location":"Donawitz",
        "country":"Austria",
        "latitude":47.380455,
        "longitude":15.065182,
        "scale":"Full scale -  under construction",
        "status":"under_construction",
        "tech_full":"BF-BOF to EAF for green iron - EAFusing HBI and scrap",
        "png":33,
        "tech":"steel",
        "bubble_size":2,
        "zoom":13
    },
    {
        "projectID":"GEiSt ,",
        "company":"HyIron",
        "location":"Lingen",
        "country":"Germany",
        "latitude":52.518,
        "longitude":7.32,
        "scale":"Pilot - operational",
        "status":"operational",
        "tech_full":"H-DRI - green electricity electrolysis ",
        "png":34,
        "tech":"steel",
        "bubble_size":2,
        "zoom":15
    },
    {
        "projectID":"CAP2U,",
        "company":"Heidelberg Materials and Linde",
        "location":"Lengfur",
        "country":"Germany",
        "latitude":49.8061116072,
        "longitude":9.6224330074,
        "scale":"Full scale - under construction ",
        "status":"under_construction",
        "tech_full":"CCU - not stated",
        "png":35,
        "tech":"cement",
        "bubble_size":2,
        "zoom":13
    }
]
