[
    {
        "projectID":"CATCH4CLIMATE,",
        "company":"Buzzi Unicem, Heidelberg Materials, Schwenk and Vicat",
        "location":"Mergelstetten",
        "country":"Germany",
        "latitude":48.6541389176,
        "longitude":10.1630892755,
        "scale":"Demonstration -  under construction",
        "status":"under_construction",
        "tech_full":"CCU - oxyfuel",
        "tech":"cement",
        "bubble_size":2,
        "zoom":12
    },
    {
        "projectID":"Leilac-1,",
        "company":"CEMEX, Heidelberg Materials and Tarmac\/CRH",
        "location":"Lixhe",
        "country":"Belgium",
        "latitude":50.7536286585,
        "longitude":5.6718528291,
        "scale":"Pilot - operational",
        "status":"operational",
        "tech_full":"CCS - direct separation",
        "tech":"cement",
        "bubble_size":2,
        "zoom":13
    },
    {
        "projectID":"Brevik CCS,",
        "company":"Heidelberg Materials",
        "location":"Brevik",
        "country":"Norway",
        "latitude":59.0864200982,
        "longitude":9.67496,
        "scale":"Full scale -  under construction",
        "status":"under_construction",
        "tech_full":"CCS - post-combustion",
        "tech":"cement",
        "bubble_size":2,
        "zoom":15
    },
    {
        "projectID":"XLR8 CCS Heidelberg",
        "company":"Heidelberg Materials",
        "location":"Ketton",
        "country":"United Kingdom",
        "latitude":52.6400036062,
        "longitude":-0.5463191344,
        "scale":"Pilot - operational",
        "status":"operational",
        "tech_full":"CCS - post-combustion",
        "tech":"cement",
        "bubble_size":2,
        "zoom":13
    },
    {
        "projectID":"Monselice CCS,",
        "company":"Buzzi Unicem",
        "location":"Monselice",
        "country":"Italy",
        "latitude":45.253611667,
        "longitude":11.7519863867,
        "scale":"Pilot - operational",
        "status":"operational",
        "tech_full":"CCS - not stated",
        "tech":"cement",
        "bubble_size":2,
        "zoom":13
    },
    {
        "projectID":null,
        "company":"Hoffmann Green Cement",
        "location":"Bournezeau ",
        "country":"France",
        "latitude":46.6306557342,
        "longitude":-1.1571965721,
        "scale":"Demonstration - operational",
        "status":"operational",
        "tech_full":"klin for calcined clay - flash calciner",
        "tech":"cement",
        "bubble_size":2,
        "zoom":14
    },
    {
        "projectID":"Argilor ,",
        "company":"Vicat",
        "location":"Xeuilley",
        "country":"France",
        "latitude":48.5635519952,
        "longitude":6.1075678034,
        "scale":"Full scale -  under construction",
        "status":"under_construction",
        "tech_full":"klin for calcined clay - flash calciner",
        "tech":"cement",
        "bubble_size":2,
        "zoom":14
    },
    {
        "projectID":"ECOPlanet",
        "company":"Holcim",
        "location":"Le Teil",
        "country":"France",
        "latitude":43.4207599613,
        "longitude":5.3865104515,
        "scale":"Full scale - operational",
        "status":"operational",
        "tech_full":"klin for calcined clay - not stated",
        "tech":"cement",
        "bubble_size":2,
        "zoom":13
    },
    {
        "projectID":"ECoClay,",
        "company":"FLSmidth",
        "location":"Dania",
        "country":"Denmark",
        "latitude":56.6872112389,
        "longitude":10.0518911666,
        "scale":"Pilot -  under construction",
        "status":"under_construction",
        "tech_full":"klin for calcined clay - electric calciner",
        "tech":"cement",
        "bubble_size":2,
        "zoom":13
    },
    {
        "projectID":"proximA TechZero",
        "company":"Holcim",
        "location":"Saint-Pierre-la-Cour",
        "country":"France",
        "latitude":48.1079836655,
        "longitude":-1.0367546473,
        "scale":"Full scale - operational",
        "status":"operational",
        "tech_full":"klin for calcined clay - biomass fueled and waste recovery",
        "tech":"cement",
        "bubble_size":2,
        "zoom":13
    },
    {
        "projectID":"Steelanol,",
        "company":"ArcelorMittal",
        "location":"Ghent",
        "country":"Belgium",
        "latitude":51.169929,
        "longitude":3.804462,
        "scale":"Demonstration - operational",
        "status":"operational",
        "tech_full":"CCU for BF-BOF - CCU for ethanol production",
        "tech":"steel",
        "bubble_size":2,
        "zoom":13
    },
    {
        "projectID":"SuSteel,",
        "company":"Voestalpine Group",
        "location":"Donawitz",
        "country":"Austria",
        "latitude":47.380455,
        "longitude":15.065182,
        "scale":"Pilot - operational ",
        "status":"operational ",
        "tech_full":"ESR - hydrogen plasma smelting reduction",
        "tech":"steel",
        "bubble_size":2,
        "zoom":13
    },
    {
        "projectID":"SIDERWIN,",
        "company":"ArcelorMittal",
        "location":"Maizi\u00e8res-l\u00e8s-Metz",
        "country":"France",
        "latitude":49.20014802,
        "longitude":6.152133758,
        "scale":"Pilot - operational",
        "status":"operational",
        "tech_full":"electrowinning - electrolysis with renewables",
        "tech":"steel",
        "bubble_size":2,
        "zoom":16
    },
    {
        "projectID":"3D - DMX\u2122 ,",
        "company":"ArcelorMittal",
        "location":"Dunkirk",
        "country":"France",
        "latitude":51.041274,
        "longitude":2.292948,
        "scale":"Pilot - operational",
        "status":"operational",
        "tech_full":"CCS for BF-BOF - demonstration of CCS from industrial activities",
        "tech":"steel",
        "bubble_size":2,
        "zoom":13
    },
    {
        "projectID":"GrInHy2.0  (demonstration for SALCOS),",
        "company":"Salzgitter Group",
        "location":"Salzgitter",
        "country":"Germany",
        "latitude":52.161794,
        "longitude":10.409371,
        "scale":"Demonstration - operational",
        "status":"operational",
        "tech_full":"H2 production - green electricity electrolysis",
        "tech":"steel",
        "bubble_size":2,
        "zoom":12
    },
    {
        "projectID":"H2Future,",
        "company":"Voestalpine Group",
        "location":"Linz",
        "country":"Austria",
        "latitude":48.274023,
        "longitude":14.33434,
        "scale":"Pilot - operational ",
        "status":"operational ",
        "tech_full":"H2 production - green electricity electrolysis",
        "tech":"steel",
        "bubble_size":2,
        "zoom":13
    },
    {
        "projectID":"Torero,",
        "company":"ArcelorMittal",
        "location":"Ghent",
        "country":"Belgium",
        "latitude":51.169929,
        "longitude":3.804462,
        "scale":"Demonstration -  under construction",
        "status":"under_construction",
        "tech_full":"Biomass for BF - biocoal for BF with CCS",
        "tech":"steel",
        "bubble_size":2,
        "zoom":13
    },
    {
        "projectID":"HyBit ,",
        "company":"ArcelorMittal",
        "location":"Bremen",
        "country":"Germany",
        "latitude":53.133305,
        "longitude":8.688193,
        "scale":"Full scale -  under construction",
        "status":"under_construction",
        "tech_full":"H2 production ",
        "tech":"steel",
        "bubble_size":2,
        "zoom":13
    },
    {
        "projectID":"tkH2Steel,",
        "company":"Thyssenkrupp",
        "location":"Duisburg",
        "country":"Germany",
        "latitude":51.491649,
        "longitude":6.733051,
        "scale":"Full scale -  under construction",
        "status":"under_construction",
        "tech_full":"NG-DRI to H-DRI - midrex flex",
        "tech":"steel",
        "bubble_size":2,
        "zoom":13
    },
    {
        "projectID":"HYFOR,",
        "company":"Voestalpine Group",
        "location":"Donawitz",
        "country":"Austria",
        "latitude":47.380455,
        "longitude":15.065182,
        "scale":"Pilot - operational",
        "status":"operational",
        "tech_full":"H-DRI - H-DRI and Hy4Smelt",
        "tech":"steel",
        "bubble_size":2,
        "zoom":13
    },
    {
        "projectID":"H2G2,",
        "company":"Stegra",
        "location":"Boden",
        "country":"Sweden",
        "latitude":65.8125635957,
        "longitude":21.7821342138,
        "scale":"Full scale -  under construction",
        "status":"under_construction",
        "tech_full":"H-DRI - green electricity electrolysis and EAF",
        "tech":"steel",
        "bubble_size":2,
        "zoom":12
    },
    {
        "projectID":"WindH2  (Demonstration for SALCOS),",
        "company":"Salzgitter Group",
        "location":"Salzgitter",
        "country":"Germany",
        "latitude":52.17207373,
        "longitude":10.43011341,
        "scale":"Demonstration - operational",
        "status":"operational",
        "tech_full":"H2 production - green electricity electrolysis",
        "tech":"steel",
        "bubble_size":2,
        "zoom":13
    },
    {
        "projectID":"HYBRIT,",
        "company":"SSAB, LKAB and Vattenfall",
        "location":"Oxel\u00f6sund",
        "country":"Sweden",
        "latitude":58.670789,
        "longitude":17.127786,
        "scale":"Full scale -  under construction",
        "status":"under_construction",
        "tech_full":"BF-BOF to EAF for green iron - EAF using HBI and scrap",
        "tech":"steel",
        "bubble_size":2,
        "zoom":12
    },
    {
        "projectID":"HYBRIT,",
        "company":"SSAB, LKAB and Vattenfall",
        "location":"Lule\u00e5",
        "country":"Sweden",
        "latitude":65.5523556174,
        "longitude":22.2672942647,
        "scale":"Pilot - operational",
        "status":"operational",
        "tech_full":"BF-BOF to EAF for green iron",
        "tech":"steel",
        "bubble_size":2,
        "zoom":12
    },
    {
        "projectID":"\u03bcDRAL (Demonstration for SALCOS),",
        "company":"Salzgitter Group",
        "location":"Salzgitter",
        "country":"Germany",
        "latitude":52.161794,
        "longitude":10.409371,
        "scale":"Demonstration - operational",
        "status":"operational",
        "tech_full":"NG-DRI to H-DRI - flexible operation NG and H2",
        "tech":"steel",
        "bubble_size":2,
        "zoom":12
    },
    {
        "projectID":"Greentec,",
        "company":"Voestalpine Group",
        "location":"Linz",
        "country":"Austria",
        "latitude":48.274023,
        "longitude":14.33434,
        "scale":"Full scale -  under construction",
        "status":"under_construction",
        "tech_full":"BF-BOF to EAF for green iron - EAF using HBI and scrap",
        "tech":"steel",
        "bubble_size":2,
        "zoom":12
    },
    {
        "projectID":"Greentec,",
        "company":"Voestalpine Group",
        "location":"Donawitz",
        "country":"Austria",
        "latitude":47.380455,
        "longitude":15.065182,
        "scale":"Full scale -  under construction",
        "status":"under_construction",
        "tech_full":"BF-BOF to EAF for green iron - EAF using HBI and scrap",
        "tech":"steel",
        "bubble_size":2,
        "zoom":13
    },
    {
        "projectID":"GEiSt ,",
        "company":"HyIron",
        "location":"Lingen",
        "country":"Germany",
        "latitude":52.518,
        "longitude":7.32,
        "scale":"Pilot - operational",
        "status":"operational",
        "tech_full":"H-DRI - green electricity electrolysis ",
        "tech":"steel",
        "bubble_size":2,
        "zoom":16
    },
    {
        "projectID":"CAP2U,",
        "company":"Heidelberg Materials and Linde",
        "location":"Lengfur",
        "country":"Germany",
        "latitude":49.8061116072,
        "longitude":9.6224330074,
        "scale":"Full scale - under construction ",
        "status":"under_construction",
        "tech_full":"CCU - not stated",
        "tech":"cement",
        "bubble_size":2,
        "zoom":13
    },
    {
        "projectID":"ANVAR.beta,",
        "company":"Heidelberg Materials",
        "location":"Devnya",
        "country":"Bulgaria",
        "latitude":43.23457119314487,
        "longitude":27.595268196582634,
        "scale":"Pilot - under construction",
        "status":"under_construction",
        "tech_full":"CCUS - oxyfuel and amine",
        "tech":"cement",
        "bubble_size":2,
        "zoom":14
    },
    {
        "projectID":"Carbon2Chem",
        "company":"thyssenkrupp",
        "location":"\u00a0Duisburg",
        "country":"Germany",
        "latitude":51.3649809677,
        "longitude":6.7198494969,
        "scale":"Pilot - under construction",
        "status":"under_construction",
        "tech_full":"NG-DRI to H-DRI",
        "tech":"steel",
        "bubble_size":2,
        "zoom":13
    }
]
